City,Lat,Lng,Max Temp,Humidity,Cloudiness,Wind Speed,Country,Date
Butaritari,3.0707,172.7902,82.83,79,40,15.23,KI,1621130074
Ahipara,-35.1667,173.1667,67.15,68,2,10.65,NZ,1621130091
Rikitea,-23.1203,-134.9692,74.55,67,100,17.92,PF,1621130203
Yellowknife,62.456,-114.3525,39.07,65,75,12.66,CA,1621130203
Sesimbra,38.4445,-9.1015,63.72,77,75,6.91,PT,1621130204
Bluff,-46.6,168.3333,54.0,69,51,3.0,NZ,1621130204
Busdi,8.2761,125.2514,83.17,60,80,3.83,PH,1621130204
Verkhnevilyuysk,63.4453,120.3167,44.62,73,100,9.89,RU,1621130205
Bredasdorp,-34.5322,20.0403,51.8,87,96,6.91,ZA,1621130098
Carnarvon,-24.8667,113.6333,71.6,53,69,11.5,AU,1621130205
Ushuaia,-54.8,-68.3,42.8,70,20,7.0,AR,1621130206
Hilo,19.7297,-155.09,76.53,45,20,9.22,US,1621130120
Punta Arenas,-53.15,-70.9167,44.29,100,90,11.5,CL,1621130189
East London,-33.0153,27.9116,64.87,78,98,18.37,ZA,1621130207
Albany,42.6001,-73.9662,54.41,68,100,4.85,US,1621130017
Nikolskoye,59.7035,30.7861,53.78,88,75,6.71,RU,1621130208
Yenagoa,4.9247,6.2642,76.42,95,99,2.95,NG,1621130208
Norman Wells,65.282,-126.8329,50.0,50,20,17.27,CA,1621130167
Beloha,-25.1667,45.05,68.04,72,45,3.29,MG,1621130209
Jiuquan,39.7432,98.5174,65.48,22,80,5.55,CN,1621130209
Clyde River,70.4692,-68.5914,15.8,67,1,11.5,CA,1621130210
Aklavik,68.2191,-135.0107,50.0,46,100,5.75,CA,1621130006
Ruteng,-8.6136,120.4721,71.91,66,41,1.99,ID,1621130211
Zyryanka,65.75,150.85,45.14,59,19,12.37,RU,1621130211
Waipawa,-41.4122,175.5153,59.79,77,75,20.71,NZ,1621130212
Hasaki,35.7333,140.8333,72.25,73,75,13.8,JP,1621130213
Busselton,-33.65,115.3333,64.99,66,100,5.01,AU,1621130214
Zanjān,36.6736,48.4787,54.88,55,1,2.86,IR,1621130214
Atuona,-9.8,-139.0333,79.57,67,7,15.84,PF,1621130071
Port Alfred,-33.5906,26.891,62.87,82,95,16.49,ZA,1621130067
Coos Bay,43.3665,-124.2179,51.55,87,90,18.41,US,1621129994
Codrington,-38.2667,141.9667,56.35,73,92,18.48,AU,1621130216
Cotonou,6.3654,2.4183,81.66,81,92,7.7,BJ,1621130177
Saldanha,-33.0117,17.9442,53.6,87,0,16.22,ZA,1621130216
Chaman,30.9236,66.4512,72.07,15,14,6.55,PK,1621130217
Mataura,-46.1927,168.8643,54.0,69,6,3.0,NZ,1621130098
Tondano,1.3038,124.9112,87.8,62,20,3.44,ID,1621130217
Kapaa,22.0752,-159.319,76.93,61,40,19.57,US,1621130218
Jamestown,42.097,-79.2353,54.43,33,1,5.75,US,1621129921
Ullal,12.8,74.85,75.2,94,90,11.5,IN,1621130219
Hermanus,-34.4187,19.2345,53.01,82,100,1.99,ZA,1621130080
Pevek,69.7008,170.3133,30.22,91,75,0.65,RU,1621130197
Keti Bandar,24.1447,67.4497,83.28,73,100,11.01,PK,1621130219
Kahului,20.8947,-156.47,76.59,54,40,18.41,US,1621130049
Port Lincoln,-34.7333,135.8667,59.32,62,98,9.13,AU,1621130220
Haines Junction,60.7522,-137.5108,55.4,26,17,10.36,CA,1621130221
Dikson,73.5069,80.5464,24.6,74,100,15.7,RU,1621130221
Kumul,42.8,93.45,75.67,14,100,1.63,CN,1621130053
Lavaca,28.615,-96.6261,76.05,78,1,28.77,US,1621130222
Buraidah,26.326,43.975,84.2,20,0,6.91,SA,1621130223
Vaini,-21.2,-175.2,82.4,83,75,10.36,TO,1621130078
Otuzco,-7.9,-78.5833,64.4,88,70,6.91,PE,1621130223
Meulaboh,4.1363,96.1285,80.17,80,100,3.09,ID,1621130224
Iberia,29.9502,-91.7507,72.7,73,75,5.75,US,1621130224
Castro,-24.7911,-50.0119,50.63,93,0,3.4,BR,1621130225
Jalu,29.0331,21.5482,69.91,40,0,11.77,LY,1621130225
Porbandar,21.6422,69.6093,84.2,84,75,17.27,IN,1621130045
Saint-Pierre,-21.3393,55.4781,72.12,73,75,14.97,RE,1621130226
Scarborough,54.2797,-0.4044,46.62,91,100,1.01,GB,1621130227
Panalingaan,8.7842,117.4231,88.23,62,75,1.19,PH,1621130227
Provideniya,64.3833,-173.3,43.74,56,10,2.93,RU,1621130085
Wilmington,34.2257,-77.9447,59.2,55,1,4.16,US,1621129976
Ponta Delgada,37.7333,-25.6667,64.4,94,75,8.05,PT,1621130228
Saint George,37.1041,-113.5841,86.07,8,1,28.77,US,1621130202
Klaksvík,62.2266,-6.589,42.8,93,90,16.11,FO,1621130123
Anadyr,64.75,177.4833,42.8,65,0,4.47,RU,1621130229
Arraial do Cabo,-22.9661,-42.0278,69.62,78,3,8.61,BR,1621130229
Saskylakh,71.9167,114.0833,15.35,90,100,14.7,RU,1621130230
Volchikha,52.0333,80.3833,68.38,37,10,8.01,RU,1621130230
Nelson Bay,-32.7167,152.15,58.95,44,0,16.11,AU,1621130230
Faanui,-16.4833,-151.75,81.68,69,100,15.52,PF,1621130231
Geraldton,-28.7667,114.6,73.4,35,6,23.02,AU,1621130231
Huarmey,-10.0681,-78.1522,65.75,83,5,8.59,PE,1621130232
Tasiilaq,65.6145,-37.6368,28.4,69,17,3.18,GL,1621130074
Brønnøysund,65.4625,12.1997,50.0,76,90,8.05,NO,1621130233
Puerto Ayora,-0.7393,-90.3518,75.0,92,16,3.0,EC,1621130100
São Filipe,14.8961,-24.4956,73.98,68,66,11.41,CV,1621130005
Cabo San Lucas,22.8909,-109.9124,82.99,32,20,11.5,MX,1621130072
Edson,53.5835,-116.4356,66.2,32,1,13.8,CA,1621130234
Portland,45.5234,-122.6762,75.85,34,20,11.5,US,1621129976
San Juan,-31.5375,-68.5364,34.0,34,66,32.01,AR,1621130234
Kruisfontein,-34.0033,24.7314,57.99,94,100,3.0,ZA,1621130114
Narsaq,60.9167,-46.05,41.0,38,10,4.61,GL,1621130235
Vila Velha,-20.3297,-40.2925,68.54,94,40,2.3,BR,1621130142
Mossamedes,-15.1961,12.1522,73.09,61,0,4.76,AO,1621130235
Barrow,71.2906,-156.7887,28.4,80,90,11.5,US,1621130237
Cape Town,-33.9258,18.4232,53.2,87,0,8.05,ZA,1621130054
Richards Bay,-28.783,32.0377,66.02,36,0,5.23,ZA,1621130069
Khatanga,71.9667,102.5,19.22,88,99,10.56,RU,1621130238
Rudnogorsk,57.2639,103.7519,40.08,50,54,9.66,RU,1621130238
Hithadhoo,-0.6,73.0833,84.56,73,100,18.19,MV,1621130089
Xinqing,48.2333,129.5,66.11,24,8,12.26,CN,1621130239
Tigil',57.8,158.6667,53.91,41,100,5.32,RU,1621130239
Avera,33.194,-82.5271,60.19,72,1,4.05,US,1621130240
Tilichiki,60.4667,166.1,32.23,87,7,3.42,RU,1621130240
Acarí,-15.4311,-74.6158,68.52,74,14,2.39,PE,1621130241
Viytivka,48.426,29.5429,51.04,88,36,5.73,UA,1621130241
Krasnosel'kup,65.7,82.4667,24.87,65,18,5.26,RU,1621130242
Port Moresby,-9.4431,147.1797,86.0,70,40,5.75,PG,1621130242
Mvomero,-6.25,38.6667,78.8,89,40,9.22,TZ,1621130243
Las Palmas,28.4204,-14.0131,68.0,77,53,14.97,ES,1621130243
Paso de Carrasco,-34.8603,-56.0522,50.0,93,99,2.3,UY,1621130126
Mount Isa,-20.7333,139.5,71.6,23,0,14.97,AU,1621130244
Huntsville,34.7304,-86.5861,63.95,63,1,3.44,US,1621130244
Hetauda,27.4284,85.0322,68.0,73,40,3.51,NP,1621130244
Hebi,35.8992,114.1925,54.91,72,100,16.62,CN,1621130245
Avarua,-21.2078,-159.775,78.8,78,75,10.36,CK,1621130081
Oktyabr'skoye,43.0645,44.7417,57.09,82,33,2.24,RU,1621130246
Kaitangata,-46.2817,169.8464,57.0,51,1,5.59,NZ,1621130246
Porto-Novo,6.4965,2.6036,79.99,84,92,4.38,BJ,1621130247
Alta Floresta,-9.8756,-56.0861,70.5,74,100,2.86,BR,1621130247
Vestmannaeyjar,63.4427,-20.2734,39.81,60,77,3.87,IS,1621130247
Dali,25.7,100.1833,68.92,46,2,4.56,CN,1621130248
Khani,41.9563,42.9566,53.6,94,0,2.3,GE,1621130248
Chui,-33.6971,-53.4616,52.02,81,100,3.74,UY,1621130228
Bethel,41.3712,-73.414,63.64,32,1,10.36,US,1621130250
Thompson,55.7435,-97.8558,46.4,53,75,5.75,CA,1621130144
Naze,28.3667,129.4833,82.4,83,75,17.27,JP,1621130251
Faya,18.3851,42.4509,67.1,18,0,3.89,SA,1621130251
Palmer,42.1584,-72.3287,54.77,51,20,3.38,US,1621130218
Hobart,-42.8794,147.3294,56.26,54,40,18.41,AU,1621130046
Karratha,-20.7377,116.8463,77.38,30,0,19.3,AU,1621130252
Mar del Plata,-38.0023,-57.5575,55.24,87,0,4.61,AR,1621130253
Eilat,29.5581,34.9482,72.59,34,0,5.46,IL,1621130253
Puerto Madryn,-42.7692,-65.0385,55.2,45,99,6.78,AR,1621130224
Saint Paul Harbor,57.79,-152.4072,44.6,81,90,8.05,US,1621130225
Waingapu,-9.6567,120.2641,83.14,65,32,15.28,ID,1621130254
Hamilton,39.1834,-84.5333,62.33,59,20,3.4,US,1621130008
Tomigusuku,26.185,127.675,83.44,83,20,14.97,JP,1621130116
Cherskiy,68.75,161.3,37.26,82,31,8.1,RU,1621130255
Saint-Philippe,-21.3585,55.7679,71.87,73,75,14.97,RE,1621130256
Moengo,5.6167,-54.4,73.76,92,30,2.3,SR,1621130256
Talnakh,69.4865,88.3972,18.27,91,99,4.47,RU,1621130076
Tabas,33.5959,56.9244,72.82,21,48,2.71,IR,1621130257
Port Elizabeth,-33.918,25.5701,59.0,94,90,10.36,ZA,1621130258
George Town,5.4112,100.3354,84.67,84,20,1.14,MY,1621130258
Nuquí,5.7125,-77.2708,78.53,89,100,3.96,CO,1621130259
Xai-Xai,-25.0519,33.6442,65.28,51,0,9.33,MZ,1621130259
Fortuna,40.5982,-124.1573,53.29,93,75,12.66,US,1621130259
Qaanaaq,77.484,-69.3632,32.4,76,99,6.82,GL,1621130260
San Policarpo,12.1791,125.5072,84.02,80,28,10.67,PH,1621130261
Alyangula,-13.8483,136.4192,82.4,54,26,9.22,AU,1621130261
Brigantine,39.4101,-74.3646,56.66,38,1,3.44,US,1621130262
Freeport,40.6576,-73.5832,60.67,39,1,8.05,US,1621130242
Bambous Virieux,-20.3428,57.7575,74.62,78,20,10.36,MU,1621130175
Lerwick,60.1545,-1.1494,46.4,93,90,4.61,GB,1621130263
Pisco,-13.7,-76.2167,64.24,88,90,5.75,PE,1621130238
Río Gallegos,-51.6226,-69.2181,44.6,93,75,4.61,AR,1621130263
Iqaluit,63.7506,-68.5145,24.39,74,90,5.75,CA,1621130264
Njombe,-9.3333,34.7667,48.54,97,15,3.09,TZ,1621130264
Bacalar,18.6667,-88.3833,82.99,82,34,6.44,MX,1621130265
Voh,-20.9667,164.7,83.26,58,13,9.22,NC,1621130265
Ol'ga,43.7444,135.2892,63.68,47,100,3.29,RU,1621130266
Bubanza Province,-3.1167,29.4,66.04,94,21,2.59,BI,1621130267
Tādepallegūdem,16.8333,81.5,84.2,79,40,4.61,IN,1621130267
Ponta do Sol,32.6667,-17.1,61.75,68,20,20.71,PT,1621130233
Hong Kong,22.2855,114.1577,83.95,78,17,1.99,HK,1621130225
Cocachacra,-17.0883,-71.7575,65.03,86,2,2.98,PE,1621130268
Olafsvik,64.8945,-23.7142,36.77,69,16,21.94,IS,1621130268
Laredo,27.5064,-99.5075,84.2,51,1,14.97,US,1621130269
Esperance,-33.8667,121.9,57.2,72,22,14.97,AU,1621130139
Tuatapere,-46.1333,167.6833,54.0,69,45,3.0,NZ,1621130269
Quelimane,-17.8786,36.8883,66.22,96,26,4.81,MZ,1621130270
Arang,21.2,81.9667,84.2,70,6,8.05,IN,1621130270
Saint-Augustin,51.226,-58.6502,39.96,82,100,10.98,CA,1621130271
Thunder Bay,48.4001,-89.3168,60.8,39,20,8.05,CA,1621130271
Morehead,37.2711,-87.1764,60.8,67,75,8.01,US,1621130272
Bengkulu,-3.8004,102.2655,82.11,75,55,1.59,ID,1621130057
Piranhas,-16.4269,-51.8222,75.67,49,93,5.1,BR,1621130273
Pangnirtung,66.1451,-65.7125,10.87,95,84,6.31,CA,1621130273
Kieta,-6.2167,155.6333,85.82,70,39,4.97,PG,1621130274
Hofn,64.2539,-15.2082,37.27,64,99,17.54,IS,1621130113
Ovsyanka,55.9575,92.5519,46.4,93,75,3.58,RU,1621130274
Los Llanos de Aridane,28.6585,-17.9182,63.1,77,0,14.97,ES,1621130155
Ubari,26.5921,12.7805,78.15,18,6,11.41,LY,1621130275
Taoudenni,22.6783,-3.9836,94.73,11,15,7.14,ML,1621130208
Ostrovnoy,68.0531,39.5131,32.4,96,100,11.48,RU,1621130255
Sos'va,59.1766,61.8558,65.16,75,80,5.17,RU,1621130276
Lüderitz,-26.6481,15.1594,60.75,89,36,5.17,NA,1621129995
Cidreira,-30.1811,-50.2056,61.25,78,5,7.02,BR,1621130065
Tuktoyaktuk,69.4541,-133.0374,35.6,80,20,11.5,CA,1621130277
Noshiro,40.2039,140.0242,69.8,68,75,1.14,JP,1621130278
Progreso,21.2833,-89.6667,82.4,69,90,12.66,MX,1621130278
Gardenstown,57.671,-2.336,40.66,87,86,1.99,GB,1621130279
Cairns,-16.9167,145.7667,82.2,47,40,18.41,AU,1621130064
Mahébourg,-20.4081,57.7,73.4,78,20,10.36,MU,1621130061
Benguela,-12.5763,13.4055,76.26,76,2,2.84,AO,1621130281
Manta,-0.95,-80.7333,75.2,88,90,2.3,EC,1621130281
Laguna,38.421,-121.4238,70.57,43,1,10.36,US,1621130282
Naica,27.85,-105.4833,81.01,18,91,25.57,MX,1621130282
Dauriya,49.9333,116.8667,57.02,29,0,19.71,RU,1621130283
Ribeira Grande,38.5167,-28.7,63.41,95,100,0.65,PT,1621130093
Poum,-20.2333,164.0167,78.51,75,97,14.34,NC,1621130213
Carangola,-20.7331,-42.0294,60.64,94,40,2.91,BR,1621130284
Margate,51.3813,1.3862,48.29,84,82,1.01,GB,1621130286
Upernavik,72.7868,-56.1549,28.96,89,100,6.89,GL,1621130126
Katsuura,35.1333,140.3,71.29,64,100,4.0,JP,1621130287
Bandarbeyla,9.4942,50.8122,83.73,73,4,20.18,SO,1621130236
San Antonio,29.4241,-98.4936,71.37,83,75,4.61,US,1621130172
Chapais,49.7834,-74.8492,53.6,40,1,4.61,CA,1621130290
Praia da Vitória,38.7333,-27.0667,64.65,94,40,2.71,PT,1621130290
Khandyga,62.6667,135.6,58.95,37,31,3.24,RU,1621130291
Grindavik,63.8424,-22.4338,37.4,65,0,6.91,IS,1621130291
Makakilo City,21.3469,-158.0858,80.47,44,1,8.05,US,1621130292
Valparaíso,-33.0393,-71.6273,55.0,79,71,10.83,CL,1621130057
Port Macquarie,-31.4333,152.9167,64.96,52,0,1.99,AU,1621130147
Offenburg,48.4833,7.9333,49.35,82,100,3.0,DE,1621130294
Usinsk,65.9939,57.5281,39.7,71,59,9.37,RU,1621130005
Harper,4.375,-7.7169,79.23,84,64,4.72,LR,1621130295
Sibolga,1.7427,98.7792,82.8,76,100,0.81,ID,1621130295
Kyren,51.6828,102.1408,61.95,36,42,4.65,RU,1621130296
Sitka,57.0531,-135.33,46.4,71,90,12.66,US,1621130200
Rawson,-43.3002,-65.1023,53.85,51,89,7.72,AR,1621130196
Padang,-0.9492,100.3543,78.8,89,40,2.3,ID,1621130297
Riyadh,24.6877,46.7219,84.67,16,0,6.06,SA,1621130015
Sola,-13.8833,167.55,81.97,74,37,7.09,VU,1621130297
Touros,-5.1989,-35.4608,73.4,94,20,4.61,BR,1621130298
Chengde,40.9725,117.9361,66.52,27,100,6.71,CN,1621130299
Santa Flavia,38.085,13.5351,60.85,32,80,5.01,IT,1621130299
Kota Bharu,6.1333,102.2386,84.09,79,20,4.61,MY,1621130300
Fort Nelson,58.8053,-122.7002,59.0,44,75,4.61,CA,1621130109
Longyearbyen,78.2186,15.6401,23.0,68,40,6.91,SJ,1621130300
Saint Anthony,45.0205,-93.218,63.28,51,1,6.91,US,1621130289
Gbarnga,6.9956,-9.4722,73.31,99,100,1.54,LR,1621130301
Leningradskiy,69.3833,178.4167,31.19,94,97,6.6,RU,1621130246
Shuyskoye,59.3736,41.0305,53.85,94,1,7.7,RU,1621130302
Palimbang,6.2106,124.1894,88.34,65,58,4.61,PH,1621130127
Concarneau,47.875,-3.9225,51.75,93,75,5.75,FR,1621130302
Erzin,36.9559,36.2,68.0,90,54,2.3,TR,1621130303
Llanes,43.4198,-4.7549,60.13,88,100,5.95,ES,1621130303
Kothāpet,19.3333,79.4833,86.83,63,100,13.04,IN,1621130303
Vila,42.0304,-8.1588,57.0,95,100,11.99,PT,1621130304
New Norfolk,-42.7826,147.0587,52.34,78,98,5.99,AU,1621130304
Bubaque,11.2833,-15.8333,77.27,84,83,11.83,GW,1621130079
Parnamirim,-5.9156,-35.2628,74.48,88,20,6.91,BR,1621130290
Santa Maria,-29.6842,-53.8069,51.8,100,0,2.3,BR,1621130306
Tezu,27.9167,96.1667,81.84,44,26,3.11,IN,1621130307
Abhā,18.2164,42.5053,67.05,18,0,4.7,SA,1621130307
Syzran',53.1585,48.4681,63.25,62,12,5.48,RU,1621130307
Province of Mantua,45.1667,10.7833,56.73,82,81,1.99,IT,1621130308
Etchoropo,26.7667,-109.6667,87.01,35,1,8.03,MX,1621130308
Staroaleyskoye,51.0061,82.0,62.35,57,7,3.65,RU,1621130309
Rosetown,51.5501,-108.0014,73.4,23,99,14.97,CA,1621130309
Tiksi,71.6872,128.8694,31.71,92,100,6.78,RU,1621130310
Yerbogachën,61.2767,108.0108,30.7,59,100,17.63,RU,1621130310
Pires do Rio,-17.2997,-48.2794,68.76,57,100,3.67,BR,1621130311
San Patricio,28.017,-97.5169,75.07,94,90,12.66,US,1621130311
Lata,40.1629,-8.3327,59.0,94,100,1.99,PT,1621130311
Jesús Carranza,17.4333,-95.0333,79.88,72,6,5.57,MX,1621130312
Tsuruoka,38.7217,139.8217,73.4,64,75,12.66,JP,1621130312
Marabá,-5.3686,-49.1178,72.52,98,100,2.77,BR,1621130313
Ratnagiri,16.9833,73.3,83.48,69,100,17.38,IN,1621130313
Westport,41.1415,-73.3579,62.29,48,1,5.75,US,1621130314
Tāybād,34.74,60.7756,66.16,24,0,14.65,IR,1621130314
Morón,-34.6534,-58.6198,56.07,61,72,2.62,AR,1621130248
Road Town,18.4167,-64.6167,80.24,83,20,5.75,VG,1621130159
Mitsamiouli,-11.3847,43.2844,80.33,74,65,10.58,KM,1621130182
Yeniseysk,58.4497,92.1703,42.03,48,100,3.78,RU,1621130315
Hervey Bay,-25.2986,152.8535,66.2,37,3,11.5,AU,1621130295
Dunedin,-45.8742,170.5036,55.99,65,0,8.01,NZ,1621130316
Kimbe,-5.5502,150.1429,91.67,52,84,5.46,PG,1621130316
Oskemen,49.9565,82.6119,55.4,71,0,2.24,KZ,1621130317
Payo,-3.7508,103.6372,84.0,69,62,1.72,ID,1621130317
Tautira,-17.7333,-149.15,86.0,62,40,6.91,PF,1621130318
Machalí,-34.1833,-70.6667,59.76,50,100,2.77,CL,1621130318
Orvault,47.271,-1.6219,52.43,93,75,5.75,FR,1621130319
Petropavlovsk-Kamchatskiy,53.0452,158.6483,57.2,26,100,13.42,RU,1621130286
Nanortalik,60.1432,-45.2371,36.14,83,11,2.01,GL,1621130319
Gunjur,13.2019,-16.7339,73.4,88,18,5.75,GM,1621130320
Coyhaique,-45.5752,-72.0662,44.6,81,40,6.91,CL,1621130320
Ghātanji,20.1333,78.3167,86.9,59,90,15.88,IN,1621130321
Shimoda,34.6667,138.95,70.61,78,75,6.91,JP,1621130321
Dandong,40.1292,124.3947,64.53,45,100,14.54,CN,1621130052
Mahon,39.8885,4.2658,62.6,88,0,9.22,ES,1621130322
Serenje,-13.2325,30.2352,53.15,76,5,3.24,ZM,1621130322
Cagayan de Oro,8.4822,124.6472,93.0,65,54,5.03,PH,1621130322
Lebu,-37.6167,-73.65,51.35,87,0,8.32,CL,1621130323
Isabela,6.7085,121.9711,84.2,84,75,3.44,PH,1621130256
Gisborne,-38.6533,178.0042,64.0,56,13,3.0,NZ,1621130323
Najrān,17.4924,44.1277,84.2,26,40,4.61,SA,1621130324
Salalah,17.0151,54.0924,82.4,83,40,3.44,OM,1621130324
Mayya,61.7333,130.2811,62.6,34,0,6.71,RU,1621130325
Puerto Escondido,15.85,-97.0667,83.82,75,38,4.09,MX,1621130325
Aykhal,66.0,111.5,19.4,91,100,21.5,RU,1621130325
Leshukonskoye,64.8989,45.7622,51.62,85,100,6.06,RU,1621130327
Bam,29.106,58.357,74.23,23,0,2.46,IR,1621130327
Zhezkazgan,47.8043,67.7144,64.8,39,0,6.6,KZ,1621130328
Torbay,47.6666,-52.7314,38.23,100,75,5.73,CA,1621130328
Chokurdakh,70.6333,147.9167,32.74,98,100,6.85,RU,1621130328
Ust-Kuyga,70.0167,135.6,43.03,58,32,5.35,RU,1621130329
Havøysund,70.9963,24.6622,33.8,93,90,16.11,NO,1621130329
Coquimbo,-29.9533,-71.3436,55.4,88,0,2.3,CL,1621130055
Fallon,39.4735,-118.7774,55.69,67,75,11.5,US,1621130330
Uray,60.1247,64.7758,61.21,79,100,3.8,RU,1621130330
Mae Sot,16.7167,98.5667,84.2,70,20,3.44,TH,1621130331
Coahuayana Viejo,18.7333,-103.6833,80.71,75,1,2.93,MX,1621130331
Antofagasta,-23.65,-70.4,60.8,77,90,11.5,CL,1621130062
Souillac,-20.5167,57.5167,73.4,78,20,10.36,MU,1621130332
Biltine,14.5333,20.9167,80.17,5,6,9.01,TD,1621130332
Kirakira,-10.4544,161.9205,86.29,68,8,6.58,SB,1621130333
Bachatskiy,54.2927,86.1285,63.48,55,58,12.53,RU,1621130333
Lázaro Cárdenas,17.9583,-102.2,82.2,74,0,7.38,MX,1621130333
Ossora,59.2353,163.0719,36.34,86,22,2.77,RU,1621130334
Alofi,-19.0595,-169.9187,82.4,74,4,12.66,NU,1621130334
Aitape,-3.1374,142.3475,86.9,68,100,8.05,PG,1621130335
Akdepe,42.0551,59.3788,61.72,39,0,9.22,TM,1621130335
Te Anau,-45.4167,167.7167,51.33,57,7,5.91,NZ,1621130336
Tsimmerbude,54.675,20.1347,44.29,100,90,4.47,RU,1621130336
Tomatlán,19.9333,-105.25,81.07,58,0,3.89,MX,1621130336
Port Keats,-14.25,129.55,83.82,22,2,14.12,AU,1621130337
Colares,38.7992,-9.4469,64.18,88,81,7.52,PT,1621130337
Deputatsky,69.3,139.9,28.06,94,82,3.8,RU,1621130338
Andros,37.8333,24.9333,62.6,94,0,3.44,GR,1621130290
Kasongo,-4.45,26.6667,69.73,88,49,2.13,CD,1621130339
Kiryat Gat,31.61,34.7642,61.0,82,2,1.23,IL,1621130339
Culaman,5.9603,125.6586,87.8,62,20,9.22,PH,1621130339
Ketchikan,55.3422,-131.6461,51.8,82,90,8.05,US,1621130340
Lavrentiya,65.5833,-171.0,33.66,91,18,4.25,RU,1621130340
Tshikapa,-6.4167,20.8,75.52,66,99,2.42,CD,1621130341
Maniitsoq,65.4167,-52.9,35.2,87,97,6.62,GL,1621130341
Cayenne,4.9333,-52.3333,76.24,100,90,2.3,GF,1621130230
Khandagayty,50.7333,92.05,57.94,39,8,3.38,RU,1621130342
Kokopo,-4.352,152.2633,87.51,60,89,6.69,PG,1621130342
Izumo,35.3667,132.7667,77.0,78,75,14.97,JP,1621130342
Yulara,-25.2406,130.9889,60.8,48,2,19.57,AU,1621130217
Springbok,-29.6643,17.8865,52.2,91,100,9.6,ZA,1621130343
Qaqortoq,60.7167,-46.0333,41.0,38,6,4.61,GL,1621130154
Igunga,-4.2833,33.8833,64.99,76,5,3.42,TZ,1621130344
Ilulissat,69.2167,-51.1,35.6,64,75,3.44,GL,1621130219
Haicheng,40.8516,122.7475,67.37,26,100,19.91,CN,1621130345
Beringovskiy,63.05,179.3167,32.4,95,100,8.41,RU,1621130345
Quatre Cocos,-20.2078,57.7625,74.75,78,20,10.36,MU,1621130330
Edgewater,28.9889,-80.9023,69.19,56,20,14.97,US,1621130346
Stykkisholmur,65.0757,-22.7297,35.83,70,7,14.74,IS,1621130346
Uribia,11.7139,-72.266,81.66,67,71,15.14,CO,1621130346
Fukuechō,32.6881,128.8419,73.4,100,75,14.97,JP,1621130347
Paramonga,-10.6667,-77.8333,64.78,85,5,7.27,PE,1621130347
Sorong,-0.8833,131.25,84.96,71,45,5.1,ID,1621130314
Halifax,44.6453,-63.5724,46.15,61,20,5.75,CA,1621130315
Tucuruí,-3.7661,-49.6725,73.24,98,100,4.16,BR,1621130348
Egvekinot,66.3167,-179.1667,31.26,95,18,4.36,RU,1621130348
Pemangkat,1.1667,108.9667,83.91,73,51,3.6,ID,1621130083
Gbadolite,4.2833,21.0167,69.22,96,100,0.94,CD,1621130349
Vidim,56.4088,103.1106,43.27,53,90,8.46,RU,1621130349
Cham,47.1821,8.4636,45.0,81,90,5.75,CH,1621130351
Shingū,33.7333,135.9833,71.6,88,75,10.36,JP,1621130351
Airai,-8.9266,125.4092,70.61,53,81,4.38,TL,1621130131
Belmonte,-15.8631,-38.8828,69.8,83,20,4.61,BR,1621130352
Davila,18.4726,120.5763,89.6,70,20,8.05,PH,1621130352
Lianran,24.9227,102.485,66.2,55,0,13.42,CN,1621130353
Rundu,-17.9333,19.7667,56.93,48,4,3.87,NA,1621130353
Svobodnyy,51.4,128.1333,60.1,42,0,13.53,RU,1621130353
Mattawa,46.7379,-119.9028,82.0,17,6,8.99,US,1621130354
Blind River,46.1834,-82.9582,53.6,50,1,3.44,CA,1621130354
Port Blair,11.6667,92.75,86.0,89,40,1.14,IN,1621130355
Mehamn,71.0357,27.8492,34.56,84,100,20.22,NO,1621130355
Balkhash,46.844,74.9804,59.0,33,0,15.66,KZ,1621130356
Heilbron,-27.2812,27.9709,49.01,45,0,6.89,ZA,1621130356
Verkh-Usugli,52.7,115.1667,56.12,40,93,13.42,RU,1621130245
Severo-Kuril'sk,50.6789,156.125,42.33,67,100,14.65,RU,1621130245
Gambiran,-6.7988,111.4951,83.46,66,0,6.51,ID,1621130357
Kapit,2.0167,112.9333,77.97,95,100,1.88,MY,1621130357
São João da Barra,-21.6403,-41.0511,67.86,79,2,1.57,BR,1621130358
Steinbach am Taunus,50.1667,8.5667,47.08,93,40,8.05,DE,1621130358
Price,39.5994,-110.8107,73.4,16,1,23.02,US,1621130358
Port Shepstone,-30.7414,30.455,68.59,38,6,6.44,ZA,1621130359
Todos Santos,23.45,-110.2167,83.53,48,40,8.05,MX,1621130359
Itacoatiara,-3.1431,-58.4442,75.61,94,97,2.64,BR,1621130360
Yuanping,38.7153,112.7575,55.65,49,100,9.19,CN,1621130360
Sungai Penuh,-2.0833,101.3833,75.04,77,62,0.89,ID,1621130360
Boguchany,58.3814,97.4531,40.78,47,62,6.22,RU,1621130361
Iisalmi,63.5592,27.1907,51.8,93,0,3.44,FI,1621130361
Tucumcari,35.1717,-103.725,69.8,56,1,20.71,US,1621130362
Lompoc,34.6391,-120.4579,52.92,67,66,12.66,US,1621130362
Kiama,-34.6833,150.8667,61.68,43,0,8.99,AU,1621130362
Murgab,37.4966,61.9714,64.4,45,0,4.61,TM,1621130363
Asău,46.4333,26.4,48.99,64,99,2.06,RO,1621130363
Middelburg,-25.7751,29.4648,51.15,39,0,4.03,ZA,1621130364
Byron Bay,-28.65,153.6167,62.78,48,62,13.8,AU,1621130110
Lagoa,39.05,-27.9833,60.82,88,100,5.23,PT,1621130364
Kavieng,-2.5744,150.7967,85.55,74,95,16.46,PG,1621130202
Kédougou,12.5579,-12.1743,90.0,43,100,8.16,SN,1621130365
Cap Malheureux,-19.9842,57.6142,75.99,68,1,5.99,MU,1621130365
Okhotsk,59.3833,143.3,38.66,83,100,19.69,RU,1621130079
Itarema,-2.9248,-39.9167,75.97,85,100,7.78,BR,1621130366
Lakatoro,-16.0999,167.4164,84.09,72,19,5.37,VU,1621130366
Gorshechnoye,51.5244,38.0365,55.09,78,43,2.98,RU,1621130366
Sakakah,29.9697,40.2064,73.4,13,0,3.44,SA,1621130072
Province of Trapani,37.8333,12.6667,59.63,47,88,2.75,IT,1621130367
Nantucket,41.2835,-70.0995,52.36,93,1,4.61,US,1621130368
Hualmay,-11.0964,-77.6139,64.4,85,3,7.34,PE,1621130222
Athabasca,54.7169,-113.2854,67.15,26,100,13.8,CA,1621130368
Sawākin,19.1059,37.3321,80.71,41,0,2.24,SD,1621130369
Sørland,67.667,12.6934,43.34,89,98,15.35,NO,1621130369
Hoa Binh,20.8133,105.3383,84.2,89,75,5.75,VN,1621130369
Launceston,-41.45,147.1667,56.12,58,40,17.27,AU,1621130370
Bathsheba,13.2167,-59.5167,80.6,61,20,24.16,BB,1621130370
Brae,60.3964,-1.353,46.4,93,90,4.61,GB,1621130370
Lamu,-2.2717,40.902,78.84,83,15,13.22,KE,1621130371
Rock Sound,24.9,-76.2,78.06,71,99,20.24,BS,1621130371
Fairbanks,64.8378,-147.7164,60.24,39,20,8.05,US,1621130210
Tahe,52.3333,124.7333,62.82,25,0,8.43,CN,1621130204
Guerrero Negro,27.9769,-114.0611,60.62,74,0,18.41,MX,1621130372
Machado,-21.6747,-45.9197,59.02,86,45,2.98,BR,1621130372
San Cristobal,7.7669,-72.225,67.69,87,98,2.77,VE,1621130373
Naryan-Mar,67.6713,53.087,33.94,63,94,9.46,RU,1621130373
St. George's,12.0564,-61.7485,80.6,78,40,17.27,GD,1621130374
Rayachoti,14.05,78.75,83.14,57,80,8.93,IN,1621130374
Marzuq,14.4,46.4667,79.34,32,7,3.98,YE,1621130375
Mount Gambier,-37.8333,140.7667,53.6,94,90,14.97,AU,1621130152
Madarounfa,13.3087,7.156,88.02,35,87,9.1,NE,1621130375
Samarai,-10.6167,150.6667,83.1,74,75,8.08,PG,1621130213
Kaniama,-7.5667,24.1833,67.06,77,12,3.8,CD,1621130376
Turbat,26.0023,63.044,89.19,33,5,2.73,PK,1621130376
College,64.8569,-147.8028,60.21,36,75,12.66,US,1621130157
Semnan,35.5729,53.3971,66.67,37,53,4.97,IR,1621130377
Sabha,27.0377,14.4283,74.84,30,0,14.14,LY,1621130377
Kalmunai,7.4167,81.8167,84.0,73,92,4.54,LK,1621130378
Türkan,40.3639,50.215,51.8,100,0,4.61,AZ,1621130378
Pedernales,18.0384,-71.744,78.82,79,4,7.78,DO,1621130378
Chumikan,54.7183,135.315,36.34,98,100,17.05,RU,1621130264
Henties Bay,-22.116,14.2845,62.74,85,0,7.85,NA,1621130379
Mezen',65.8522,44.24,44.15,85,93,6.85,RU,1621130379
Sonāri,27.0667,95.0333,69.8,100,90,4.61,IN,1621130380
Barguzin,53.6167,109.6167,42.85,90,100,10.58,RU,1621130380
Csetény,47.3181,17.9921,56.21,77,0,9.22,HU,1621130380
Kupang,-10.1667,123.5833,84.2,58,20,16.11,ID,1621130381
Nador,35.174,-2.9287,62.13,55,0,1.63,MA,1621130381
Kīhei,20.785,-156.4656,76.26,54,40,18.41,US,1621130382
Mulegé,26.8833,-111.9833,78.94,38,16,1.77,MX,1621130382
Honningsvåg,70.9821,25.9704,35.67,80,100,22.5,NO,1621130383
Calderitas,18.55,-88.25,82.99,82,8,10.31,MX,1621130383
Lusambo,-4.9667,23.45,72.84,76,61,0.74,CD,1621130350
Cabedelo,-6.9811,-34.8339,73.4,94,0,5.75,BR,1621130384
Nouakchott,18.0858,-15.9785,68.0,88,0,16.11,MR,1621130384
Sept-Îles,50.2001,-66.3821,39.6,87,75,2.3,CA,1621130110
Phonhong,18.5007,102.4166,86.0,79,40,4.61,LA,1621130384
Caldwell,43.6629,-116.6874,76.35,21,1,6.91,US,1621130385
Umm Kaddadah,13.6017,26.6876,73.92,8,91,4.32,SD,1621130385
Bonavista,48.6499,-53.1147,38.35,81,95,1.14,CA,1621130245
Seoul,37.5683,126.9778,66.79,94,90,8.05,KR,1621130135
Nevel',56.0209,29.9284,48.85,98,29,4.54,RU,1621130386
Alghero,40.5589,8.3181,60.8,77,0,5.75,IT,1621130386
Novopavlovsk,43.9622,43.6342,63.75,42,20,8.95,RU,1621130387
Astoria,46.1879,-123.8313,53.58,76,90,5.75,US,1621130387
Port Hardy,50.6996,-127.4199,52.61,76,75,12.66,CA,1621130388
Katete,-0.7818,29.7544,59.41,97,56,3.06,UG,1621130388
Provincia di Campobasso,41.6333,14.5833,50.94,88,100,7.31,IT,1621130388
Presidente Olegário,-18.4178,-46.4181,63.0,100,14,3.29,BR,1621130389
Labuhan,-6.8844,112.2051,83.39,72,2,5.01,ID,1621130389
Luau,-10.7073,22.2247,59.18,68,13,4.07,AO,1621130390
Ouésso,1.6136,16.0517,70.47,98,100,0.87,CG,1621130391
Laje,-10.1833,-40.9667,67.8,82,52,6.73,BR,1621130392
Tay Ninh,11.3,106.1,88.12,62,12,6.82,VN,1621130392
Yārāda,17.65,83.2667,86.0,89,75,6.91,IN,1621130393
Nome,64.5011,-165.4064,52.45,38,1,12.66,US,1621130393
Nolinsk,57.5596,49.9363,62.8,74,11,5.44,RU,1621130394
Porgera,-5.4667,143.2,53.15,93,100,2.84,PG,1621130394
El Bordo,2.117,-76.9821,68.05,93,96,1.41,CO,1621130394
Uvira,-3.4067,29.1458,70.68,87,33,3.76,CD,1621130395
Ramsar,36.9226,50.6426,59.0,88,40,2.3,IR,1621130395
Barra do Garças,-15.89,-52.2567,69.8,83,0,2.3,BR,1621130395
Buala,-8.145,159.5921,86.07,70,32,9.13,SB,1621130396
Plettenberg Bay,-34.0527,23.3716,57.54,89,100,11.1,ZA,1621130396
Lorengau,-2.0226,147.2712,86.79,69,100,12.44,PG,1621130199
Winnemucca,40.973,-117.7357,64.4,36,90,3.44,US,1621130320
Anaconda,46.1285,-112.9423,59.11,24,1,4.79,US,1621130397
Linda,39.1277,-121.5508,74.19,38,1,1.74,US,1621130397
Totness,5.8833,-56.3167,77.07,86,74,9.95,SR,1621130398
Neiafu,-18.65,-173.9833,82.4,78,40,9.22,TO,1621130398
Juba,4.8517,31.5825,71.4,83,11,4.43,SS,1621130399
Aloleng,16.1307,119.7824,89.24,58,5,2.98,PH,1621130399
Saint Lawrence,36.0553,14.204,60.8,63,0,8.05,MT,1621130399
Grand Gaube,-20.0064,57.6608,75.99,68,0,5.99,MU,1621130400
Nangomba,-10.9,38.5,64.78,94,6,2.3,TZ,1621130400
Gouyave,12.1646,-61.7296,80.6,78,40,17.27,GD,1621130218
Te Horo,-40.8084,175.1233,62.13,74,100,5.01,NZ,1621130401
Iskateley,67.6803,53.1512,33.87,62,94,9.48,RU,1621130404
Magadan,59.5667,150.8,38.16,90,100,10.67,RU,1621130186
Yangi Marg`ilon,40.4272,71.7189,64.4,45,0,4.61,UZ,1621130163
Likasi,-10.9814,26.7333,55.31,76,2,3.09,CD,1621130118
Kenitra,34.261,-6.5802,59.0,100,3,4.61,MA,1621130407
Inhambane,-23.865,35.3833,68.09,88,0,10.4,MZ,1621130409
Monrovia,6.3005,-10.7969,79.0,85,100,5.3,LR,1621130409
Baie-Comeau,49.2168,-68.1489,44.6,81,1,6.91,CA,1621130411
Cascais,38.6979,-9.4215,64.18,88,81,7.25,PT,1621130369
Oranjemund,-28.55,16.4333,59.7,97,44,7.63,NA,1621130214
Boden,65.8252,21.6886,44.6,93,90,5.75,SE,1621130412
Vao,-22.6667,167.4833,75.79,80,51,16.55,NC,1621130413
Soyo,-6.1349,12.3689,79.2,85,54,8.39,AO,1621130414
Ca Mau,9.1769,105.15,90.99,54,52,6.46,VN,1621130147
San Quintín,30.4833,-115.95,60.96,73,8,14.27,MX,1621130414
Kawalu,-7.3817,108.2082,79.56,79,42,3.91,ID,1621130415
Port Augusta,-32.5,137.7667,57.54,67,90,6.91,AU,1621130415
Sioux Lookout,50.1001,-91.917,60.8,51,75,3.44,CA,1621130416
Babstovo,48.1167,132.4833,65.97,34,52,14.45,RU,1621130416
Isangel,-19.55,169.2667,81.54,72,11,6.53,VU,1621130416
Tornio,65.8481,24.1466,46.4,93,40,4.61,FI,1621130417
Shyryayeve,47.3805,30.1964,57.25,69,95,3.85,UA,1621130418
Banda Aceh,5.5577,95.3222,83.12,77,100,2.75,ID,1621130418
Sarkand,45.41,79.9186,58.06,50,41,1.36,KZ,1621130149
Dingle,10.9995,122.6711,87.12,67,99,13.31,PH,1621130419
Assiut,27.181,31.1837,69.8,49,0,3.42,EG,1621130420
Clemencia,10.5665,-75.325,80.6,89,40,11.5,CO,1621130420
Santa Fe,-31.6333,-60.7,57.65,75,46,4.81,AR,1621130353
Broome,42.2506,-75.833,55.47,36,90,4.61,US,1621130421
Russell,32.3502,-85.1999,62.19,77,1,4.16,US,1621130412
Aden,12.7794,45.0367,87.12,70,75,7.38,YE,1621130379
La Paz,-16.5,-68.15,45.77,64,92,2.91,BO,1621130405
Kenai,60.5544,-151.2583,47.14,71,20,13.8,US,1621130422
San Ramon,37.7799,-121.978,60.78,55,1,13.8,US,1621130423
Salmās,38.1973,44.7653,53.6,50,0,9.22,IR,1621130424
Camacha,33.0833,-16.3333,66.2,77,75,13.8,PT,1621130424
Tuensang,26.2833,94.8333,72.27,83,90,1.95,IN,1621130425
Walvis Bay,-22.9575,14.5053,57.2,77,0,3.44,NA,1621130274
Muriwai Beach,-36.8167,174.45,68.09,58,7,1.01,NZ,1621130425
Bowen,-20.0167,148.2333,73.4,38,0,14.97,AU,1621130426
San Pietro in Casale,44.6996,11.4022,55.62,82,0,1.14,IT,1621130426
Guane,22.2025,-84.0875,74.5,86,99,3.47,CU,1621130427
Alora,36.8236,-4.7058,73.2,38,0,14.97,ES,1621130428
Fort Saint James,54.4333,-124.25,58.42,58,100,9.66,CA,1621130428
Elizabeth City,36.2946,-76.2511,53.89,58,1,8.05,US,1621130429
Nizwá,22.9333,57.5333,85.14,23,5,5.19,OM,1621130429
Esil,51.9556,66.4042,68.16,46,1,7.4,KZ,1621130430
Businga,3.3333,20.8833,70.0,96,100,1.81,CD,1621130209
Zambezi,-13.5432,23.1047,56.8,67,6,3.06,ZM,1621130431
São Desidério,-12.3633,-44.9733,73.98,51,98,2.08,BR,1621130431
Rosarito,32.3333,-117.0333,61.12,59,90,5.75,MX,1621130432
Ville-Marie,47.3335,-79.433,59.0,55,90,11.5,CA,1621130432
Novoseleznëvo,55.6821,69.2056,69.26,52,58,8.61,RU,1621130433
Sompeta,18.9333,84.6,86.65,74,48,8.23,IN,1621130433
Celestún,20.8667,-90.4,80.67,74,100,16.64,MX,1621130434
Biak,-0.9131,122.8766,81.55,79,90,7.05,ID,1621130434
Glamoč,44.0458,16.8486,37.99,95,100,13.0,BA,1621130435
Sistranda,63.7256,8.834,50.0,66,0,19.57,NO,1621130436
Ignatovka,53.9479,47.6536,61.47,64,70,8.19,RU,1621130436
Broken Hill,-31.95,141.4333,53.6,50,90,11.5,AU,1621130437
Nishihara,26.1842,127.7558,84.07,74,75,17.27,JP,1621130437
Kwinana,-32.25,115.7667,67.82,45,75,14.97,AU,1621130438
Hay River,60.8156,-115.7999,33.8,100,90,4.61,CA,1621130438
Salgueiro,-8.0742,-39.1192,72.09,81,97,14.05,BR,1621130439
Jiwani,25.05,61.7417,83.5,75,0,3.4,PK,1621130439
Garoowe,8.4054,48.4845,79.84,62,2,16.67,SO,1621130439
NEDJO,9.5046,35.5019,57.47,98,78,0.34,ET,1621130440
Innisfail,-17.5333,146.0333,76.6,53,0,12.44,AU,1621130369
Auki,-8.7676,160.7034,86.92,63,32,4.07,SB,1621130441
Palomares,17.15,-95.0667,78.6,75,4,2.73,MX,1621130441
Birin,26.8865,88.0718,67.98,62,82,1.77,NP,1621130441
Kanganpur,30.7663,74.1231,87.55,33,30,6.35,PK,1621130442
Acaraú,-2.8856,-40.12,76.8,84,100,8.32,BR,1621130442
Åmot,59.5714,7.9877,43.79,94,100,2.75,NO,1621130443
Gizo Government Station,-8.103,156.8419,85.69,67,98,3.49,SB,1621130443
Mazatlán,23.2167,-106.4167,83.28,70,75,9.22,MX,1621130430
Keta,5.9179,0.9879,77.0,83,20,3.44,GH,1621130444
Vaasa,63.096,21.6158,44.89,93,90,4.61,FI,1621130444
Atar,20.5169,-13.0499,78.87,23,54,6.02,MR,1621130445
Altay,47.8667,88.1167,62.22,35,10,2.59,CN,1621130445
Edd,13.9297,41.6925,86.9,53,19,5.19,ER,1621130445
Watertown,42.3709,-71.1828,61.38,41,1,4.61,US,1621130446
Merauke,-8.4667,140.3333,83.16,76,98,13.49,ID,1621130446
Bakchar,57.0186,82.0711,55.06,91,100,5.32,RU,1621130447
Karaton,-6.3424,106.1045,86.0,66,20,5.75,ID,1621130447
Leeton,-34.5667,146.4,51.8,50,90,10.36,AU,1621130258
Iwanai,42.9744,140.5089,56.08,96,100,6.2,JP,1621130448
Takhtamygda,54.1,123.5667,61.21,26,0,5.59,RU,1621130448
Arrondissement du Havre,49.5833,0.3333,49.14,93,75,11.5,FR,1621130449
Mbeya,-8.9,33.45,53.38,91,73,4.32,TZ,1621130449
Bilibino,68.0546,166.4372,34.36,80,86,1.57,RU,1621130450
La Ligua,-32.4524,-71.2311,57.51,81,66,1.77,CL,1621130450
Romny,50.751,33.4747,51.3,91,3,5.3,UA,1621130450
Port Victoria,0.0939,33.9756,67.21,81,45,6.33,KE,1621130451
Washougal,45.5826,-122.3534,75.74,34,20,11.5,US,1621130451
Thinadhoo,0.5333,72.9333,84.81,73,100,18.41,MV,1621130305
Leopold,-38.1833,144.4667,56.68,67,75,21.85,AU,1621130452
Half Moon Bay,37.4636,-122.4286,56.5,93,90,5.75,US,1621130452
Littlehampton,50.8069,-0.5378,50.83,88,31,8.01,GB,1621130453
Husavik,66.0449,-17.3389,35.6,60,90,9.22,IS,1621130453
Balabac,7.9868,117.0645,86.56,69,67,9.71,PH,1621130453
Timmins,48.4669,-81.3331,60.8,44,75,2.3,CA,1621130454
Aljezur,37.3191,-8.8033,59.81,94,12,7.29,PT,1621130454
